{
    "data":[
       {
          "name":"San Andrés",
          "recovered":109,
          "country":"CO",
          "infected":262,
          "id":"01b09TY4vmuZwzVuiRFK",
          "dead":3,
          "pop":72600,
          "longitude":-81.7006,
          "lastUpdated":"2020-09-02T06:12:43.467Z",
          "latitude":12.5847,
          "sick":150,
          "invisible":false
       },
       {
          "pop":63196,
          "dead":13,
          "name":"Guernsey",
          "alwaysShow":false,
          "recovered":238,
          "lastUpdated":"2020-09-02T05:33:03.684Z",
          "id":"0FOJefeLxQYXQ1CnJm9o",
          "longitude":-2.5895,
          "latitude":49.4482,
          "infected":252,
          "country":"GG",
          "sick":1,
          "invisible":false
       },
       {
          "id":"0GJcws44NSPsDHAuxJhW",
          "longitude":14.333333,
          "dead":446,
          "infected":7168,
          "name":"Campania",
          "state":"72",
          "recovered":4430,
          "latitude":41.066666,
          "lastUpdated":"2020-09-02T06:01:01.544Z",
          "country":"IT",
          "pop":5827000,
          "sick":2292,
          "invisible":false
       },
       {
          "recovered":0,
          "id":"0HDQbiHe462xMCUV5HiI",
          "latitude":-20.2167,
          "lastUpdated":"2020-09-02T06:06:02.144Z",
          "infected":10713,
          "country":"CL",
          "dead":204,
          "name":"Tarapacá",
          "pop":383870,
          "longitude":-70.14222,
          "sick":10509,
          "invisible":false
       },
       {
          "latitude":20.9517,
          "pop":45990000,
          "name":"Odisha",
          "id":"0VG7S6aaK4eSo59fL9JO",
          "country":"IN",
          "longitude":85.0985,
          "dead":556,
          "infected":106561,
          "recovered":80770,
          "lastUpdated":"2020-09-02T06:12:02.308Z",
          "sick":25235,
          "invisible":false
       },
       {
          "recovered":0,
          "pop":2990300,
          "name":"Hidalgo",
          "country":"MX",
          "infected":10454,
          "latitude":20.4737,
          "longitude":-98.8582,
          "id":"0XmCRqiK2ZaehoEJvfer",
          "lastUpdated":"2020-09-02T06:02:01.924Z",
          "dead":1607,
          "sick":8847,
          "invisible":false
       },
       {
          "lastUpdated":"2020-09-02T06:12:02.309Z",
          "country":"IN",
          "id":"0jStOpTUNRaQYJqgmRoK",
          "pop":427246,
          "infected":3160,
          "name":"Andaman and Nicobar Islands",
          "latitude":11.7401,
          "dead":46,
          "recovered":2714,
          "longitude":92.6586,
          "sick":400,
          "invisible":false
       },
       {
          "country":"QA",
          "latitude":25.315058,
          "dead":198,
          "recovered":115895,
          "pop":2639000,
          "infected":118994,
          "longitude":51.145517,
          "id":"0m4aECS0Z2DGFEr8ldgI",
          "name":"Qatar",
          "lastUpdated":"2020-09-02T06:16:03.369Z",
          "sick":2901,
          "invisible":false
       },
       {
          "name":"West Bengal",
          "infected":165721,
          "country":"IN",
          "pop":90320000,
          "id":"0n54EMSDJcRoT1QEvw80",
          "latitude":22.9868,
          "dead":3283,
          "lastUpdated":"2020-09-02T06:12:02.307Z",
          "recovered":137616,
          "longitude":87.855,
          "sick":24822,
          "invisible":false
       },
       {
          "lastUpdated":"2020-09-02T06:12:02.308Z",
          "id":"0s18o5DrDAHjbu5MFcrj",
          "pop":73340000,
          "name":"Madhya Pradesh",
          "infected":65490,
          "country":"IN",
          "latitude":22.9734,
          "longitude":78.6569,
          "recovered":49992,
          "dead":1426,
          "sick":14072,
          "invisible":false
       },
       {
          "lastUpdated":"2020-09-02T06:16:03.360Z",
          "infected":0,
          "dead":0,
          "country":"US",
          "invisible":true,
          "name":"Unknown US state",
          "latitude":37.0902,
          "longitude":-95.7129,
          "id":"0tFoopNTs6e4tOoaltu2",
          "recovered":3497431,
          "sick":0
       },
       {
          "lastUpdated":"2020-09-02T05:53:04.380Z",
          "longitude":108.472214,
          "name":"Shaanxi",
          "latitude":35.64249,
          "recovered":355,
          "country":"CN",
          "id":"0x2HLhr5z5xAtEdO4iZm",
          "dead":3,
          "pop":37330000,
          "infected":365,
          "sick":7,
          "invisible":false
       },
       {
          "infected":14455,
          "recovered":11525,
          "country":"MK",
          "latitude":41.643351,
          "dead":604,
          "pop":2077000,
          "id":"19MvIhipqTyYv1H37Upw",
          "longitude":21.668393,
          "name":"North Macedonia",
          "lastUpdated":"2020-09-02T06:16:03.385Z",
          "sick":2326,
          "invisible":false
       },
       {
          "longitude":-57.6604,
          "name":"Newfoundland and Labrador",
          "dead":3,
          "pop":521542,
          "infected":269,
          "lastUpdated":"2020-09-02T06:15:01.887Z",
          "id":"1DOMOmCWDtva46OVSZLv",
          "state":"NL",
          "recovered":265,
          "country":"CA",
          "latitude":53.1355,
          "sick":1,
          "invisible":false
       },
       {
          "id":"1Fap7rZu9SIRqf5TG9Dg",
          "name":"Qinghai",
          "dead":0,
          "pop":5627000,
          "longitude":96.779286,
          "recovered":18,
          "country":"CN",
          "infected":18,
          "lastUpdated":"2020-09-02T05:53:04.382Z",
          "latitude":35.801933,
          "sick":0,
          "invisible":false
       },
       {
          "id":"1YXQMlVL3fUeDZmcVfJw",
          "recovered":421373,
          "latitude":23.6345,
          "longitude":-102.5528,
          "name":"Unknown Mexico state",
          "pop":126200000,
          "invisible":true,
          "dead":0,
          "lastUpdated":"2020-09-02T06:16:03.367Z",
          "country":"MX",
          "infected":0,
          "sick":0
       },
       {
          "recovered":7627,
          "dead":193,
          "name":"Omsk Oblast",
          "id":"1at5nIap9H51v32otlQl",
          "longitude":73.3167,
          "country":"RU",
          "lastUpdated":"2020-09-02T06:00:09.774Z",
          "infected":9324,
          "pop":1960000,
          "latitude":55.0555,
          "sick":1504,
          "invisible":false
       },
       {
          "infected":32923,
          "country":"IT",
          "dead":4146,
          "lastUpdated":"2020-09-02T06:01:01.545Z",
          "id":"1eTSQyfp8RoDPeFrIwun",
          "longitude":8.206944,
          "name":"Piemonte",
          "recovered":27313,
          "latitude":44.9,
          "state":"21",
          "pop":4376000,
          "sick":1464,
          "invisible":false
       },
       {
          "recovered":0,
          "longitude":15.461,
          "name":"Lubuskie",
          "id":"1j1OurxLTpZYuWIWwQ9F",
          "country":"PL",
          "lastUpdated":"2020-09-02T06:03:02.236Z",
          "dead":14,
          "pop":1003000,
          "infected":706,
          "latitude":51.993,
          "sick":692,
          "invisible":false
       },
       {
          "recovered":25872,
          "dead":1008,
          "lastUpdated":"2020-09-02T06:16:03.382Z",
          "country":"MD",
          "longitude":28.3699,
          "infected":37208,
          "pop":3550000,
          "id":"1qTPB8X3tyLyIdsb5TN3",
          "latitude":47.4116,
          "name":"Moldova",
          "sick":10328,
          "invisible":false
       },
       {
          "latitude":37.0902,
          "longitude":-95.7129,
          "infected":14180,
          "dead":120,
          "invisible":true,
          "id":"22PJOAThcDFKgSbyQIkD",
          "name":"Federal Bureau of Prisons",
          "country":"US",
          "recovered":0,
          "lastUpdated":"2020-09-02T06:17:02.433Z",
          "sick":14060
       },
       {
          "lastUpdated":"2020-09-02T05:53:04.382Z",
          "dead":0,
          "infected":1,
          "name":"Tibet",
          "longitude":88.787865,
          "latitude":30.15336,
          "country":"CN",
          "pop":3180000,
          "id":"25qIBtsW2nfQj3pwBKg9",
          "recovered":1,
          "sick":0,
          "invisible":false
       },
       {
          "infected":177571,
          "recovered":128057,
          "longitude":115.66779,
          "id":"2KHYUb5t3lwzVVmDjwNX",
          "pop":264000000,
          "name":"Indonesia",
          "lastUpdated":"2020-09-02T06:16:03.369Z",
          "dead":7505,
          "latitude":-1.572184,
          "country":"ID",
          "sick":42009,
          "invisible":false
       },
       {
          "longitude":-120.585594,
          "infected":26946,
          "recovered":0,
          "state":"OR",
          "dead":465,
          "name":"Oregon",
          "lastUpdated":"2020-09-02T06:17:02.430Z",
          "id":"2OrsssmGUs4XCzaZzvTv",
          "latitude":43.807191,
          "country":"US",
          "pop":4191000,
          "sick":26481,
          "invisible":false
       },
       {
          "name":"Antofagasta",
          "longitude":-70.400002,
          "latitude":-23.65,
          "pop":425000,
          "id":"2c5HBZ1ffkCVXnMYUWnY",
          "infected":18192,
          "dead":446,
          "country":"CL",
          "recovered":0,
          "lastUpdated":"2020-09-02T06:06:02.144Z",
          "sick":17746,
          "invisible":false
       },
       {
          "longitude":-51.070534,
          "state":"AP",
          "lastUpdated":"2020-09-02T05:57:02.098Z",
          "recovered":0,
          "dead":663,
          "pop":9029000,
          "name":"Amapá",
          "infected":43514,
          "country":"BR",
          "latitude":0.035574,
          "id":"2dzhyWsBSPpENWlNew0b",
          "sick":42851,
          "invisible":false
       },
       {
          "longitude":126.548103,
          "latitude":43.851921,
          "id":"2jxHvSsxdnom0nPNvOT8",
          "infected":157,
          "name":"Jilin",
          "dead":2,
          "recovered":155,
          "pop":27460000,
          "lastUpdated":"2020-09-02T05:53:04.381Z",
          "country":"CN",
          "sick":0,
          "invisible":false
       },
       {
          "name":"Gibraltar",
          "country":"GI",
          "latitude":36.1408,
          "dead":0,
          "longitude":-5.3536,
          "recovered":237,
          "id":"2p11BjSAs3wVyymgqBOe",
          "lastUpdated":"2020-09-02T06:16:03.400Z",
          "pop":34571,
          "infected":290,
          "sick":53,
          "invisible":false
       },
       {
          "longitude":1.6751,
          "latitude":47.7516,
          "dead":574,
          "infected":7517,
          "country":"FR",
          "recovered":2402,
          "id":"2sLNkkHpyaHx7dD3aMDO",
          "pop":2567000,
          "name":"Centre-Val de Loire",
          "lastUpdated":"2020-09-01T23:58:39.114Z",
          "sick":4541,
          "invisible":false
       },
       {
          "dead":80,
          "pop":884640,
          "state":"55",
          "country":"IT",
          "longitude":12.643751,
          "latitude":42.565044,
          "name":"Umbria",
          "recovered":1445,
          "id":"319tiZOMczx1y0DfvOib",
          "lastUpdated":"2020-09-02T06:01:01.545Z",
          "infected":1803,
          "sick":278,
          "invisible":false
       },
       {
          "dead":162,
          "longitude":-76.6131592,
          "id":"38T96Q3XNjt5FSJygPed",
          "latitude":2.43823,
          "country":"CO",
          "lastUpdated":"2020-09-02T06:12:43.466Z",
          "name":"Cauca",
          "infected":5406,
          "recovered":3455,
          "pop":1355000,
          "sick":1789,
          "invisible":false
       },
       {
          "infected":12381,
          "id":"3IlPjAbP5qVMn1nlgLTJ",
          "recovered":11479,
          "latitude":-13.133896,
          "lastUpdated":"2020-09-02T06:16:03.385Z",
          "longitude":27.849332,
          "name":"Zambia",
          "country":"ZM",
          "dead":290,
          "pop":17090000,
          "sick":612,
          "invisible":false
       },
       {
          "lastUpdated":"2020-09-02T06:16:03.387Z",
          "longitude":19.3958,
          "country":"ME",
          "dead":102,
          "name":"Montenegro",
          "latitude":42.7044,
          "id":"3LstMSN5XMYBkxbe5HN7",
          "pop":631219,
          "recovered":4058,
          "infected":4917,
          "sick":757,
          "invisible":false
       },
       {
          "latitude":-35.4735,
          "longitude":149.0124,
          "state":"ACT",
          "name":"Australian Capital Territory",
          "recovered":110,
          "lastUpdated":"2020-09-02T05:58:23.379Z",
          "id":"3OZoQsKrzxZ18EKyfGE6",
          "infected":113,
          "country":"AU",
          "dead":3,
          "pop":418440,
          "sick":0,
          "invisible":false
       },
       {
          "longitude":38.8389,
          "country":"RU",
          "dead":37,
          "name":"Yaroslavl Oblast",
          "recovered":6535,
          "pop":608000,
          "latitude":57.8992,
          "id":"3PfzjWjvOkfgxc672BHQ",
          "infected":7269,
          "lastUpdated":"2020-09-02T06:00:09.777Z",
          "sick":697,
          "invisible":false
       },
       {
          "infected":6841,
          "recovered":6207,
          "id":"3PpqgIUJAtzxo1j7z56i",
          "pop":321000,
          "dead":65,
          "longitude":95.626,
          "country":"RU",
          "latitude":51.8873,
          "name":"Tuva",
          "lastUpdated":"2020-09-02T06:00:09.777Z",
          "sick":569,
          "invisible":false
       },
       {
          "name":"Assam",
          "id":"3cCbnJCsK7mKlTO08K1o",
          "country":"IN",
          "dead":315,
          "pop":30940000,
          "latitude":26.2006,
          "longitude":92.9376,
          "lastUpdated":"2020-09-02T06:12:02.307Z",
          "infected":111725,
          "recovered":86893,
          "sick":24517,
          "invisible":false
       },
       {
          "recovered":0,
          "country":"US",
          "pop":11690000,
          "lastUpdated":"2020-09-02T06:17:02.427Z",
          "state":"OH",
          "longitude":-82.9071,
          "name":"Ohio",
          "dead":4174,
          "infected":124687,
          "id":"3fC3bAyIRUquOQOEnQNe",
          "latitude":40.4173,
          "sick":120513,
          "invisible":false
       },
       {
          "infected":16399,
          "dead":2806,
          "name":"Sinaloa",
          "lastUpdated":"2020-09-02T06:02:01.922Z",
          "latitude":25,
          "country":"MX",
          "id":"3kFCzJguabtBvXaHxgiu",
          "pop":3066400,
          "recovered":0,
          "longitude":-107.5,
          "sick":13593,
          "invisible":false
       },
       {
          "recovered":35120,
          "infected":45255,
          "country":"CO",
          "dead":1623,
          "id":"3mC2LveOpXV8P1PmQGUj",
          "lastUpdated":"2020-09-02T06:12:43.464Z",
          "pop":4708300,
          "name":"Valle del Cauca",
          "latitude":3.420556,
          "longitude":-76.522224,
          "sick":8512,
          "invisible":false
       },
       {
          "pop":4420000,
          "country":"MR",
          "infected":7075,
          "name":"Mauritania",
          "dead":159,
          "longitude":-10.9408,
          "lastUpdated":"2020-09-02T06:16:03.386Z",
          "recovered":6464,
          "latitude":21.0079,
          "id":"4NnFMekRK2m14IlnZZoj",
          "sick":452,
          "invisible":false
       },
       {
          "longitude":-127.6476,
          "lastUpdated":"2020-09-02T06:15:01.887Z",
          "country":"CA",
          "id":"4hfZRUoUgI4a3vrG0GBk",
          "state":"BC",
          "recovered":4505,
          "dead":209,
          "infected":5848,
          "latitude":53.7267,
          "name":"British Columbia",
          "pop":5071000,
          "sick":1134,
          "invisible":false
       },
       {
          "longitude":-43.196388,
          "state":"RJ",
          "infected":226800,
          "pop":17159960,
          "country":"BR",
          "latitude":-22.908333,
          "name":"Rio de Janeiro",
          "lastUpdated":"2020-09-02T05:57:02.089Z",
          "id":"4kq0z3kh5zt3YAUWxvtE",
          "recovered":0,
          "dead":16217,
          "sick":210583,
          "invisible":false
       },
       {
          "country":"BR",
          "recovered":0,
          "pop":14812617,
          "dead":5448,
          "state":"BA",
          "id":"4yDbkEyqsNzZJjfrciYV",
          "latitude":-11.409874,
          "longitude":-41.280857,
          "name":"Bahia",
          "infected":259418,
          "lastUpdated":"2020-09-02T05:57:02.089Z",
          "sick":253970,
          "invisible":false
       },
       {
          "id":"4zqzRm2xHn0CDVOUQJ8p",
          "latitude":40.3426,
          "pop":9898000,
          "name":"Azerbaijan",
          "lastUpdated":"2020-09-02T06:16:03.383Z",
          "country":"AZ",
          "infected":36578,
          "longitude":47.93802,
          "recovered":33977,
          "dead":536,
          "sick":2065,
          "invisible":false
       },
       {
          "country":"MX",
          "id":"54cfsdsRF76XVHWtZs19",
          "lastUpdated":"2020-09-02T06:02:01.924Z",
          "pop":3672300,
          "latitude":22.233105,
          "recovered":0,
          "infected":24858,
          "longitude":-97.861099,
          "dead":1852,
          "name":"Tamaulipas",
          "sick":23006,
          "invisible":false
       },
       {
          "longitude":3.7265,
          "state":"VLG",
          "name":"Flanders",
          "infected":47745,
          "dead":4910,
          "pop":6596000,
          "id":"57ydD48mLRD2YoyteJZj",
          "recovered":10155,
          "country":"BE",
          "lastUpdated":"2020-09-02T06:07:14.838Z",
          "latitude":51.0109,
          "sick":32680,
          "invisible":false
       },
       {
          "lastUpdated":"2020-09-02T06:16:03.393Z",
          "infected":2276,
          "longitude":-78.035889,
          "dead":50,
          "recovered":801,
          "latitude":25.025885,
          "id":"5MHegCUO9L3LiAU7DDey",
          "pop":395361,
          "name":"Bahamas",
          "country":"BS",
          "sick":1425,
          "invisible":false
       },
       {
          "infected":4063,
          "pop":7544000,
          "id":"5N16a2OXXRpsEFanw0TC",
          "dead":52,
          "name":"New South Wales",
          "state":"NSW",
          "recovered":2994,
          "lastUpdated":"2020-09-02T05:58:23.380Z",
          "country":"AU",
          "latitude":-31.253218,
          "longitude":146.921097,
          "sick":1017,
          "invisible":false
       },
       {
          "longitude":31.3069782,
          "dead":47,
          "lastUpdated":"2020-09-02T06:16:03.393Z",
          "pop":12580000,
          "country":"SS",
          "latitude":6.8769908,
          "name":"South Sudan",
          "recovered":1290,
          "infected":2527,
          "id":"5N4PRxsCDzzwk7R200V1",
          "sick":1190,
          "invisible":false
       },
       {
          "lastUpdated":"2020-09-01T23:51:09.288Z",
          "country":"ES",
          "dead":1473,
          "infected":25006,
          "state":"VC",
          "recovered":0,
          "id":"5Va9A7CXR8AXdUz4HTJj",
          "name":"C. Valenciana",
          "pop":4975000,
          "longitude":-0.7533,
          "latitude":39.484,
          "sick":23533,
          "invisible":false
       },
       {
          "id":"5fg04eyDwFw3kEXnrxez",
          "dead":0,
          "recovered":23,
          "pop":280460,
          "lastUpdated":"2020-09-02T06:16:03.407Z",
          "name":"New Caledonia",
          "country":"NC",
          "latitude":-20.9043045,
          "infected":23,
          "longitude":165.618042,
          "sick":0,
          "invisible":false
       },
       {
          "recovered":22178,
          "latitude":28.394857,
          "name":"Nepal",
          "longitude":84.124008,
          "infected":40529,
          "id":"5gXZIjRgAvd6xWN1LOv8",
          "lastUpdated":"2020-09-02T06:16:03.382Z",
          "country":"NP",
          "dead":239,
          "pop":29300000,
          "sick":18112,
          "invisible":false
       },
       {
          "longitude":121.774017,
          "dead":3597,
          "pop":104900000,
          "id":"5pwmh7aSdGRKqRbnuyc0",
          "latitude":12.879721,
          "name":"Philippines",
          "country":"PH",
          "recovered":158012,
          "lastUpdated":"2020-09-02T06:16:03.369Z",
          "infected":224264,
          "sick":62655,
          "invisible":false
       },
       {
          "recovered":5241,
          "longitude":31.053028,
          "latitude":-17.824858,
          "lastUpdated":"2020-09-02T06:16:03.387Z",
          "dead":203,
          "name":"Zimbabwe",
          "infected":6559,
          "country":"ZW",
          "id":"5qtR9nx4BLwu1ODTniaY",
          "pop":14802190,
          "sick":1115,
          "invisible":false
       },
       {
          "pop":356890,
          "name":"Navajo Nation",
          "latitude":36.0672,
          "dead":503,
          "id":"5vkKgxTaKq1IH0Go357L",
          "infected":9830,
          "recovered":0,
          "state":"NA",
          "longitude":-109.188,
          "invisible":false,
          "lastUpdated":"2020-09-02T06:17:02.433Z",
          "country":"US",
          "sick":9327
       },
       {
          "longitude":-99.177254,
          "lastUpdated":"2020-09-02T06:02:01.923Z",
          "pop":8781300,
          "latitude":19.432241,
          "country":"MX",
          "name":"Ciudad de México",
          "infected":99564,
          "dead":10591,
          "recovered":0,
          "id":"61E7TGjUwAo9xu6Y6gAH",
          "sick":88973,
          "invisible":false
       },
       {
          "id":"63KYOuWe41mvqWQrJbr2",
          "name":"Kaluga Oblast",
          "pop":1012000,
          "lastUpdated":"2020-09-02T06:00:09.775Z",
          "recovered":6917,
          "infected":8079,
          "country":"RU",
          "latitude":54.3873,
          "longitude":35.1889,
          "dead":67,
          "sick":1095,
          "invisible":false
       },
       {
          "name":"Lithuania",
          "id":"694ON7d0mRJDeM1gHBTR",
          "latitude":55.621011,
          "pop":2794000,
          "lastUpdated":"2020-09-02T06:16:03.388Z",
          "country":"LT",
          "recovered":1857,
          "infected":2929,
          "dead":86,
          "longitude":23.804991,
          "sick":986,
          "invisible":false
       },
       {
          "name":"South East",
          "latitude":51.1781,
          "country":"GB",
          "state":"EN",
          "dead":0,
          "pop":9175000,
          "id":"6IQAsvrmBv0HPdeTnh4x",
          "recovered":0,
          "infected":37927,
          "lastUpdated":"2020-09-02T06:13:06.580Z",
          "longitude":-0.5596,
          "sick":37927,
          "invisible":false
       },
       {
          "lastUpdated":"2020-09-02T06:16:03.387Z",
          "infected":4823,
          "dead":90,
          "recovered":4380,
          "id":"6IcHIIH0zXpY0POmBZTv",
          "country":"HK",
          "latitude":22.396427,
          "pop":7392000,
          "longitude":114.109497,
          "name":"Hong Kong",
          "sick":353,
          "invisible":false
       },
       {
          "state":"AC",
          "longitude":-72.4,
          "latitude":-8.65,
          "country":"BR",
          "recovered":0,
          "pop":869265,
          "dead":616,
          "id":"6LQesrx5bHJsVUi1TXBp",
          "name":"Acre",
          "infected":24840,
          "lastUpdated":"2020-09-02T05:57:02.098Z",
          "sick":24224,
          "invisible":false
       },
       {
          "longitude":2.3158,
          "latitude":9.3077,
          "recovered":1738,
          "name":"Benin",
          "lastUpdated":"2020-09-02T06:16:03.393Z",
          "dead":40,
          "id":"6SlpghTyB6lpMFvx3g9U",
          "infected":2145,
          "country":"BJ",
          "pop":11180000,
          "sick":367,
          "invisible":false
       },
       {
          "dead":16867,
          "latitude":45.6667,
          "lastUpdated":"2020-09-02T06:01:01.544Z",
          "id":"6ZHcvMIzVWIaRnc4R3Qp",
          "recovered":76368,
          "pop":10040000,
          "longitude":9.5,
          "state":"25",
          "name":"Lombardia",
          "country":"IT",
          "infected":100317,
          "sick":7082,
          "invisible":false
       },
       {
          "name":"Slovenia",
          "pop":2067000,
          "longitude":14.5058,
          "recovered":2323,
          "lastUpdated":"2020-09-02T06:16:03.388Z",
          "id":"6ahNiyKDSDAftCctgLH3",
          "country":"SI",
          "infected":2924,
          "dead":133,
          "latitude":46.0569,
          "sick":468,
          "invisible":false
       },
       {
          "lastUpdated":"2020-09-02T06:06:02.144Z",
          "longitude":-70.331398,
          "name":"Atacama",
          "country":"CL",
          "id":"6nyns7UGGgkU7pxrHf8i",
          "dead":47,
          "pop":300000,
          "recovered":0,
          "infected":5738,
          "latitude":-27.3667908,
          "sick":5691,
          "invisible":false
       },
       {
          "longitude":11.6094,
          "name":"Gabon",
          "id":"6pBi38TUgYfFm0bry2uh",
          "lastUpdated":"2020-09-02T06:16:03.386Z",
          "recovered":7264,
          "pop":2025000,
          "dead":53,
          "infected":8533,
          "latitude":-0.8037,
          "country":"GA",
          "sick":1216,
          "invisible":false
       },
       {
          "name":"San Luis Potosí",
          "country":"MX",
          "longitude":-100.9792,
          "latitude":22.1498,
          "dead":1326,
          "pop":2831900,
          "id":"6vjIVg1gSANFZghV7xtS",
          "recovered":0,
          "lastUpdated":"2020-09-02T06:02:01.924Z",
          "infected":18284,
          "sick":16958,
          "invisible":false
       },
       {
          "country":"FR",
          "recovered":13,
          "longitude":-62.818544,
          "name":"Saint-Barthélémy",
          "latitude":17.901672,
          "alwaysShow":true,
          "dead":0,
          "id":"78Ox26bNHDA2Pk2b3Uwn",
          "pop":9131,
          "lastUpdated":"2020-09-02T06:16:03.407Z",
          "infected":18,
          "sick":5,
          "invisible":false
       },
       {
          "country":"PL",
          "id":"7JDx6UJiwGSJyL1fChaJ",
          "infected":2578,
          "pop":2305000,
          "latitude":54.367,
          "longitude":18.633,
          "recovered":0,
          "dead":47,
          "name":"Pomorskie",
          "lastUpdated":"2020-09-02T06:03:02.234Z",
          "sick":2531,
          "invisible":false
       },
       {
          "state":"ML",
          "recovered":0,
          "lastUpdated":"2020-09-01T23:54:22.149Z",
          "name":"Melilla",
          "longitude":-2.9381,
          "dead":2,
          "id":"7UASdZTZ1nPzzBwSTEA9",
          "country":"ES",
          "latitude":35.2923,
          "infected":355,
          "pop":84690,
          "sick":353,
          "invisible":false
       },
       {
          "name":"Antigua and Barbuda",
          "country":"AG",
          "recovered":91,
          "lastUpdated":"2020-09-02T06:16:03.406Z",
          "latitude":17.0608,
          "pop":102012,
          "longitude":-61.7964,
          "id":"7hVFcEV7nV0MrQr3LHrl",
          "dead":3,
          "infected":94,
          "sick":0,
          "invisible":false
       },
       {
          "country":"DE",
          "longitude":11.4979,
          "dead":2684,
          "pop":13000000,
          "recovered":51474,
          "latitude":48.7904,
          "infected":57827,
          "lastUpdated":"2020-09-02T06:00:04.242Z",
          "state":"BY",
          "id":"7kCrrlOBE3jN6FtOVNUB",
          "name":"Bayern",
          "sick":3669,
          "invisible":false
       },
       {
          "name":"Hungary",
          "lastUpdated":"2020-09-02T06:16:03.387Z",
          "longitude":19.0402,
          "pop":9773000,
          "recovered":3821,
          "country":"HU",
          "infected":6257,
          "dead":616,
          "id":"7rYC2iFB50c55Ihgbs4Q",
          "latitude":47.4979,
          "sick":1820,
          "invisible":false
       },
       {
          "longitude":-74.7813,
          "country":"CO",
          "recovered":32976,
          "latitude":10.9685,
          "name":"Barranquilla D.E.",
          "id":"7tqLvLyXcBDK808nJv0m",
          "dead":1615,
          "pop":1206000,
          "lastUpdated":"2020-09-02T06:12:43.466Z",
          "infected":36218,
          "sick":1627,
          "invisible":false
       },
       {
          "name":"Cameroon",
          "infected":19409,
          "recovered":17651,
          "lastUpdated":"2020-09-02T06:16:03.384Z",
          "country":"CM",
          "latitude":7.3697,
          "id":"8C0d7WVCjyUGtnc2gUAR",
          "pop":24050000,
          "dead":414,
          "longitude":12.3547,
          "sick":1344,
          "invisible":false
       },
       {
          "dead":1534,
          "infected":10534,
          "country":"BE",
          "state":"BRU",
          "name":"Brussels",
          "pop":1209000,
          "latitude":50.8503,
          "longitude":4.3517,
          "recovered":3115,
          "id":"8DOZWbN6bDdgaLXVlUEu",
          "lastUpdated":"2020-09-02T01:07:07.629Z",
          "sick":5885,
          "invisible":false
       },
       {
          "name":"Bolivia",
          "infected":117267,
          "latitude":-16.2902,
          "country":"BO",
          "dead":5101,
          "recovered":62124,
          "pop":11050000,
          "lastUpdated":"2020-09-02T06:16:03.369Z",
          "longitude":-63.5887,
          "id":"8RihJrXw4NQXPxaRxr1u",
          "sick":50042,
          "invisible":false
       },
       {
          "longitude":-61.2872,
          "recovered":57,
          "country":"VC",
          "infected":61,
          "name":"St. Vincent Grenadines",
          "pop":109897,
          "id":"8ZTySQROQejkDAad0qxQ",
          "lastUpdated":"2020-09-02T06:16:03.406Z",
          "dead":0,
          "latitude":12.9843,
          "sick":4,
          "invisible":false
       },
       {
          "lastUpdated":"2020-09-02T06:16:03.380Z",
          "pop":5621000,
          "country":"SG",
          "latitude":1.352083,
          "recovered":55749,
          "name":"Singapore",
          "infected":56852,
          "longitude":103.819839,
          "id":"8pA3fM4xC2c2wv1b4TnE",
          "dead":27,
          "sick":1076,
          "invisible":false
       },
       {
          "country":"FR",
          "pop":3787000,
          "name":"Pays de la Loire",
          "recovered":2427,
          "latitude":47.2184,
          "longitude":-1.5536,
          "id":"98hwAoohgWEOQVa3NlM5",
          "dead":492,
          "infected":7460,
          "lastUpdated":"2020-09-01T23:59:28.856Z",
          "sick":4541,
          "invisible":false
       },
       {
          "recovered":0,
          "id":"9DAvxOObTqIvMOU93nlY",
          "dead":759,
          "name":"Campeche",
          "lastUpdated":"2020-09-02T06:02:01.923Z",
          "latitude":19.30754,
          "infected":5721,
          "longitude":-90.19885,
          "country":"MX",
          "pop":952300,
          "sick":4962,
          "invisible":false
       },
       {
          "pop":40530000,
          "longitude":30.2176,
          "latitude":12.8628,
          "name":"Sudan",
          "infected":13189,
          "country":"SD",
          "dead":823,
          "id":"9DPOkpIqrFy9mR4e9fuv",
          "recovered":6612,
          "lastUpdated":"2020-09-02T06:16:03.385Z",
          "sick":5754,
          "invisible":false
       },
       {
          "recovered":2554,
          "id":"9JFYfvpcejMIgYlHpngA",
          "country":"RU",
          "latitude":58.5501,
          "dead":40,
          "name":"Kostroma Oblast",
          "lastUpdated":"2020-09-02T06:00:09.779Z",
          "infected":3578,
          "pop":643000,
          "longitude":43.9541,
          "sick":984,
          "invisible":false
       },
       {
          "dead":3681,
          "name":"Romania",
          "infected":88593,
          "longitude":24.966761,
          "latitude":45.943161,
          "lastUpdated":"2020-09-02T06:16:03.369Z",
          "country":"RO",
          "pop":19530000,
          "id":"9QcETqEcM2fTv9zRvx5T",
          "recovered":38454,
          "sick":46458,
          "invisible":false
       },
       {
          "dead":141,
          "country":"NI",
          "lastUpdated":"2020-09-02T06:16:03.387Z",
          "id":"9Y5wmCqNCC6ZrenM31uA",
          "recovered":2913,
          "longitude":-86.251389,
          "name":"Nicaragua",
          "latitude":12.136389,
          "pop":6218000,
          "infected":4668,
          "sick":1614,
          "invisible":false
       },
       {
          "id":"9dIzxqDSVqPyINkHqwGv",
          "infected":2777,
          "dead":126,
          "longitude":-3.996166,
          "country":"ML",
          "latitude":17.5706921,
          "recovered":2178,
          "lastUpdated":"2020-09-02T06:16:03.393Z",
          "pop":18540000,
          "name":"Mali",
          "sick":473,
          "invisible":false
       },
       {
          "latitude":61.92411,
          "id":"9p6OCdZbUUwBLA60Gk3W",
          "infected":8142,
          "longitude":25.748152,
          "name":"Finland",
          "country":"FI",
          "lastUpdated":"2020-09-02T06:16:03.386Z",
          "recovered":7200,
          "pop":5513000,
          "dead":336,
          "sick":606,
          "invisible":false
       },
       {
          "infected":16979,
          "country":"RU",
          "id":"A6Us0fpQVCc85SoIqzg3",
          "name":"Krasnoyarsk Krai",
          "dead":481,
          "lastUpdated":"2020-09-02T06:00:09.737Z",
          "latitude":64.248,
          "longitude":95.1104,
          "pop":2876000,
          "recovered":13512,
          "sick":2986,
          "invisible":false
       },
       {
          "pop":1356000,
          "country":"US",
          "recovered":0,
          "dead":432,
          "infected":7297,
          "latitude":43.311643,
          "longitude":-71.590315,
          "state":"NH",
          "id":"A84CwQ52kA46Hr7pn6Bm",
          "name":"New Hampshire",
          "lastUpdated":"2020-09-02T06:17:02.432Z",
          "sick":6865,
          "invisible":false
       },
       {
          "longitude":-71.412257,
          "lastUpdated":"2020-09-02T06:17:02.430Z",
          "country":"US",
          "pop":1057000,
          "state":"RI",
          "name":"Rhode Island",
          "id":"AEUWUHS65qvjEslew11c",
          "latitude":41.823261,
          "dead":1050,
          "recovered":0,
          "infected":22002,
          "sick":20952,
          "invisible":false
       },
       {
          "recovered":24497,
          "pop":4453000,
          "lastUpdated":"2020-09-02T06:01:01.544Z",
          "longitude":11.327591,
          "name":"Emilia-Romagna",
          "latitude":44.498955,
          "state":"45",
          "country":"IT",
          "id":"AJ9jQ0iyKsafsmf5yHAR",
          "dead":4463,
          "infected":32021,
          "sick":3061,
          "invisible":false
       },
       {
          "id":"AKjFRQGnzuuZQhv5Qwx7",
          "pop":990509,
          "longitude":7.023,
          "state":"SL",
          "country":"DE",
          "infected":3178,
          "lastUpdated":"2020-09-02T06:00:04.246Z",
          "latitude":49.3964,
          "dead":178,
          "name":"Saarland",
          "recovered":2875,
          "sick":125,
          "invisible":false
       },
       {
          "infected":13753,
          "latitude":54.4319,
          "id":"AOapJ3gElQApd8Gnt8EL",
          "dead":104,
          "name":"Chelyabinsk Oblast",
          "recovered":9462,
          "lastUpdated":"2020-09-02T06:00:09.738Z",
          "country":"RU",
          "longitude":60.8789,
          "pop":3493000,
          "sick":4187,
          "invisible":false
       },
       {
          "name":"Maule",
          "latitude":-35.717,
          "id":"APTPgjAsjFi0nsGyJV7M",
          "lastUpdated":"2020-09-02T06:06:02.145Z",
          "pop":1125002,
          "infected":11806,
          "country":"CL",
          "recovered":0,
          "longitude":-71.167,
          "dead":263,
          "sick":11543,
          "invisible":false
       },
       {
          "recovered":14,
          "latitude":71.7069,
          "longitude":-42.6043,
          "lastUpdated":"2020-09-02T06:16:03.407Z",
          "dead":0,
          "infected":14,
          "name":"Greenland",
          "country":"GL",
          "pop":56171,
          "id":"APaZzlGCEeuoLBtzTJMe",
          "sick":0,
          "invisible":false
       },
       {
          "id":"ATxF6ZoDJ2ibdE6ZRYIX",
          "latitude":54.8331,
          "longitude":112.4061,
          "lastUpdated":"2020-09-02T06:00:09.778Z",
          "infected":5291,
          "dead":50,
          "recovered":4456,
          "name":"Buryatia",
          "country":"RU",
          "pop":984000,
          "sick":785,
          "invisible":false
       },
       {
          "pop":971395,
          "state":"NS",
          "country":"CA",
          "longitude":-63.582687,
          "recovered":1014,
          "lastUpdated":"2020-09-02T06:15:01.888Z",
          "infected":1085,
          "latitude":45.65107,
          "name":"Nova Scotia",
          "id":"AVCpxeh0fuH2WrHWNDYH",
          "dead":65,
          "sick":6,
          "invisible":false
       },
       {
          "recovered":0,
          "lastUpdated":"2020-09-02T06:17:02.431Z",
          "pop":1062000,
          "longitude":-109.128641,
          "id":"AcULcZBozObOhwuRKMjJ",
          "state":"MT",
          "dead":105,
          "latitude":47.012918,
          "name":"Montana",
          "country":"US",
          "infected":7509,
          "sick":7404,
          "invisible":false
       },
       {
          "country":"TJ",
          "longitude":71.2761,
          "name":"Tajikistan",
          "latitude":38.861,
          "pop":9275000,
          "id":"AiIGs3ybYZZhm1ytVopr",
          "infected":8619,
          "dead":68,
          "recovered":7413,
          "lastUpdated":"2020-09-02T06:16:03.386Z",
          "sick":1138,
          "invisible":false
       },
       {
          "country":"CN",
          "dead":1,
          "longitude":116.01609,
          "recovered":934,
          "latitude":27.285971,
          "name":"Jiangxi",
          "id":"AmBYm5J6E9Cuez1FQjiN",
          "pop":45200000,
          "infected":935,
          "lastUpdated":"2020-09-02T05:53:04.381Z",
          "sick":0,
          "invisible":false
       },
       {
          "lastUpdated":"2020-09-02T06:13:06.579Z",
          "infected":18063,
          "name":"Wales",
          "latitude":52.1307,
          "pop":3136000,
          "recovered":0,
          "dead":1596,
          "country":"GB",
          "state":"WA",
          "longitude":-3.7837,
          "id":"AoLhHdTydeWTfmp9koEX",
          "sick":16467,
          "invisible":false
       },
       {
          "name":"Khakassia",
          "lastUpdated":"2020-09-02T06:00:09.779Z",
          "country":"RU",
          "longitude":90.3982,
          "id":"Avls64fLKoEsBFH0Ol0b",
          "infected":3434,
          "recovered":3145,
          "dead":43,
          "pop":537000,
          "latitude":53.0452,
          "sick":246,
          "invisible":false
       },
       {
          "longitude":1.659626,
          "lastUpdated":"2020-09-02T06:16:03.381Z",
          "latitude":28.033886,
          "dead":1518,
          "pop":41320000,
          "infected":44833,
          "id":"AwN0CScPDApcLFgz6e3z",
          "country":"DZ",
          "recovered":31493,
          "name":"Algeria",
          "sick":11822,
          "invisible":false
       },
       {
          "latitude":45.099998,
          "longitude":15.2,
          "infected":10414,
          "recovered":7735,
          "id":"B82Ef45M8cDu4q7VsSHF",
          "pop":4076000,
          "country":"HR",
          "dead":187,
          "name":"Croatia",
          "lastUpdated":"2020-09-02T06:16:03.385Z",
          "sick":2492,
          "invisible":false
       },
       {
          "latitude":17.6077881,
          "country":"NE",
          "longitude":8.081666,
          "id":"BENubqQInFUJzhpZTsLT",
          "recovered":1088,
          "lastUpdated":"2020-09-02T06:16:03.394Z",
          "dead":69,
          "pop":23716000,
          "name":"Niger",
          "infected":1176,
          "sick":19,
          "invisible":false
       },
       {
          "country":"US",
          "longitude":-76.98432,
          "latitude":39.509109,
          "recovered":0,
          "lastUpdated":"2020-09-02T06:17:02.428Z",
          "name":"Maryland",
          "dead":3761,
          "id":"BF51mWl51fgEcyBpCSzb",
          "pop":6043000,
          "state":"MD",
          "infected":108863,
          "sick":105102,
          "invisible":false
       },
       {
          "lastUpdated":"2020-09-02T06:16:03.379Z",
          "name":"Belarus",
          "longitude":27.953388,
          "recovered":70606,
          "pop":9508000,
          "country":"BY",
          "infected":71962,
          "id":"BGg6yVU5VP71B8NXU0oh",
          "dead":686,
          "latitude":53.709808,
          "sick":670,
          "invisible":false
       },
       {
          "longitude":0.1713,
          "pop":3319000,
          "recovered":1909,
          "id":"BGtoyzb7y54LVlJ91rbf",
          "latitude":48.8799,
          "name":"Normandie",
          "dead":448,
          "country":"FR",
          "lastUpdated":"2020-09-01T23:59:14.083Z",
          "infected":6008,
          "sick":3651,
          "invisible":false
       },
       {
          "lastUpdated":"2020-09-02T06:13:06.580Z",
          "name":"South West",
          "dead":0,
          "infected":14733,
          "latitude":50.7772,
          "pop":5616000,
          "state":"EN",
          "country":"GB",
          "recovered":0,
          "id":"BQqMOlPFD36ZEDTGd3WC",
          "longitude":-3.9995,
          "sick":14733,
          "invisible":false
       },
       {
          "name":"Arizona",
          "state":"AZ",
          "recovered":0,
          "lastUpdated":"2020-09-02T06:17:02.427Z",
          "infected":202342,
          "country":"US",
          "latitude":34.048927,
          "longitude":-111.093735,
          "id":"BTEESCuD2ZbS1afunR2A",
          "dead":5044,
          "pop":7172000,
          "sick":197298,
          "invisible":false
       },
       {
          "recovered":5300,
          "country":"RU",
          "longitude":32.6677,
          "name":"Smolensk Oblast",
          "dead":128,
          "latitude":54.9883,
          "id":"BUb7oDHcBM4lQ5cufNoG",
          "lastUpdated":"2020-09-02T06:00:09.778Z",
          "infected":6176,
          "pop":949000,
          "sick":748,
          "invisible":false
       },
       {
          "name":"Kirov Oblast",
          "lastUpdated":"2020-09-02T06:00:09.778Z",
          "infected":6619,
          "latitude":58.4199,
          "id":"BWojXmuKU3szKlS7CE4k",
          "dead":98,
          "longitude":50.2097,
          "recovered":5066,
          "country":"RU",
          "pop":1283000,
          "sick":1455,
          "invisible":false
       },
       {
          "id":"BZwZOAlDJ8AIiaRVLyC9",
          "latitude":53.428543,
          "recovered":0,
          "infected":1132,
          "name":"Zachodniopomorskie",
          "lastUpdated":"2020-09-02T06:03:02.236Z",
          "longitude":14.552812,
          "pop":1676000,
          "dead":27,
          "country":"PL",
          "sick":1105,
          "invisible":false
       },
       {
          "latitude":-33.4489,
          "dead":1,
          "name":"Unknown Chile region",
          "longitude":-70.6693,
          "recovered":385790,
          "lastUpdated":"2020-09-02T06:06:02.146Z",
          "infected":56,
          "id":"BbiuZcm8oURX7cZwaa5U",
          "country":"CL",
          "invisible":true,
          "sick":0
       },
       {
          "id":"BfT8o5DaEixC6JIZ28kY",
          "name":"Malawi",
          "lastUpdated":"2020-09-02T06:16:03.387Z",
          "pop":18620000,
          "infected":5576,
          "longitude":34.3015,
          "country":"MW",
          "latitude":-13.2543,
          "recovered":3420,
          "dead":175,
          "sick":1981,
          "invisible":false
       },
       {
          "recovered":357,
          "id":"BnpMamidC5yYzeK8tPUL",
          "infected":445,
          "name":"Burundi",
          "lastUpdated":"2020-09-02T06:16:03.397Z",
          "latitude":-3.3730559,
          "dead":1,
          "pop":10860000,
          "longitude":29.9188862,
          "country":"BI",
          "sick":87,
          "invisible":false
       },
       {
          "longitude":21.002,
          "lastUpdated":"2020-09-02T06:03:02.229Z",
          "dead":411,
          "name":"Mazowieckie",
          "latitude":52.257,
          "id":"BrToMzyq8y2xdwXn75kM",
          "infected":9459,
          "country":"PL",
          "recovered":0,
          "pop":5385000,
          "sick":9048,
          "invisible":false
       },
       {
          "pop":74751,
          "lastUpdated":"2020-09-02T06:12:43.468Z",
          "infected":2704,
          "latitude":-1.333845,
          "dead":111,
          "name":"Amazonas (Colombia)",
          "id":"C25xSDm4iYibX5RYML14",
          "recovered":2562,
          "country":"CO",
          "longitude":-71.347573,
          "sick":31,
          "invisible":false
       },
       {
          "longitude":-73.982597,
          "name":"New York",
          "recovered":0,
          "latitude":40.719042,
          "lastUpdated":"2020-09-02T06:17:02.426Z",
          "infected":467448,
          "id":"C3BCUzV80z9GfiuByIcr",
          "dead":33039,
          "state":"NY",
          "pop":19540000,
          "country":"US",
          "sick":434409,
          "invisible":false
       },
       {
          "pop":42800,
          "longitude":-67.92389,
          "country":"CO",
          "infected":156,
          "lastUpdated":"2020-09-02T06:12:43.468Z",
          "id":"C5YXFiytAc1w9swtVGLz",
          "dead":3,
          "latitude":3.86528,
          "name":"Guainía",
          "recovered":18,
          "sick":135,
          "invisible":false
       },
       {
          "recovered":18116,
          "country":"CZ",
          "longitude":15.359413,
          "dead":425,
          "id":"C6S76AggdWVU8G22jFHQ",
          "lastUpdated":"2020-09-02T06:16:03.383Z",
          "name":"Czechia",
          "infected":25117,
          "pop":10650000,
          "latitude":49.731626,
          "sick":6576,
          "invisible":false
       },
       {
          "longitude":50.557701,
          "country":"BH",
          "name":"Bahrain",
          "id":"C7cj4nwRITs13KnaJrQ2",
          "recovered":49395,
          "lastUpdated":"2020-09-02T06:16:03.381Z",
          "infected":52440,
          "dead":190,
          "pop":1493000,
          "latitude":26.0667,
          "sick":2855,
          "invisible":false
       },
       {
          "lastUpdated":"2020-09-02T06:12:43.467Z",
          "id":"CA9LaAl3bNaeAqBuozn4",
          "name":"Magdalena",
          "pop":1285400,
          "longitude":-74.4057,
          "recovered":2936,
          "infected":3949,
          "latitude":10.4113,
          "dead":333,
          "country":"CO",
          "sick":680,
          "invisible":false
       },
       {
          "lastUpdated":"2020-09-02T06:02:01.923Z",
          "infected":22346,
          "latitude":26.909979,
          "id":"CCUFp4urvgXPo5unfMGy",
          "longitude":-101.430756,
          "dead":1412,
          "pop":3073500,
          "name":"Coahuila",
          "country":"MX",
          "recovered":0,
          "sick":20934,
          "invisible":false
       },
       {
          "pop":68890000,
          "id":"CKZCZTPlrcq5fbfUPA9k",
          "country":"IN",
          "recovered":68265,
          "dead":1074,
          "longitude":74.2179,
          "name":"Rajasthan",
          "latitude":27.0238,
          "lastUpdated":"2020-09-02T06:12:02.307Z",
          "infected":83853,
          "sick":14514,
          "invisible":false
       },
       {
          "latitude":50.6182,
          "recovered":1869,
          "country":"RU",
          "name":"Altai",
          "infected":2157,
          "id":"CX8z9U1iABNBhc1VK2Dy",
          "pop":218000,
          "dead":8,
          "longitude":86.2199,
          "lastUpdated":"2020-09-02T06:00:09.780Z",
          "sick":280,
          "invisible":false
       },
       {
          "infected":25904,
          "id":"Cgvmtle61ehMvCzRzYx7",
          "name":"El Salvador",
          "dead":731,
          "pop":6378000,
          "latitude":13.803,
          "longitude":-88.9053,
          "lastUpdated":"2020-09-02T06:16:03.383Z",
          "recovered":14879,
          "country":"SV",
          "sick":10294,
          "invisible":false
       },
       {
          "dead":18,
          "infected":1943,
          "name":"Magadan Oblast",
          "lastUpdated":"2020-09-02T06:00:09.780Z",
          "pop":144000,
          "latitude":62.6643,
          "longitude":153.915,
          "id":"D4WkbqyUXY1pazbOxfKx",
          "recovered":1615,
          "country":"RU",
          "sick":310,
          "invisible":false
       },
       {
          "id":"DAp3PFow4BuCMYWWTo3i",
          "recovered":4711,
          "latitude":58.897,
          "pop":1078000,
          "lastUpdated":"2020-09-02T06:00:09.778Z",
          "name":"Tomsk Oblast",
          "dead":69,
          "longitude":82.6765,
          "infected":5748,
          "country":"RU",
          "sick":968,
          "invisible":false
       },
       {
          "recovered":38356,
          "dead":881,
          "latitude":40.259003,
          "country":"AM",
          "longitude":44.818474,
          "lastUpdated":"2020-09-02T06:16:03.381Z",
          "id":"DCJCtZoBTWQ4mzdDNljD",
          "pop":2973000,
          "infected":43878,
          "name":"Armenia",
          "sick":4641,
          "invisible":false
       },
       {
          "pop":1278000,
          "id":"DJJraANgQbEqz1wBBtZz",
          "recovered":2419,
          "lastUpdated":"2020-09-02T06:12:43.467Z",
          "latitude":5.535,
          "longitude":-73.368,
          "infected":3912,
          "dead":79,
          "name":"Boyacá",
          "country":"CO",
          "sick":1414,
          "invisible":false
       },
       {
          "pop":834000,
          "dead":38,
          "longitude":44.0684,
          "id":"DKwy7USk22oXUQGEvO42",
          "infected":5493,
          "country":"RU",
          "name":"Mordovia",
          "recovered":4310,
          "latitude":54.2369,
          "lastUpdated":"2020-09-02T06:00:09.778Z",
          "sick":1145,
          "invisible":false
       },
       {
          "recovered":0,
          "infected":53577,
          "pop":7300000,
          "longitude":-2.5945,
          "latitude":53.6221,
          "dead":0,
          "name":"North West",
          "id":"DPwBt2aJuwF0O71vwfM9",
          "lastUpdated":"2020-09-02T06:13:06.580Z",
          "state":"EN",
          "country":"GB",
          "sick":53577,
          "invisible":false
       },
       {
          "infected":172,
          "latitude":32.3213844,
          "country":"BM",
          "recovered":157,
          "pop":65440,
          "id":"DZyTD0Mu5WIcK6yTcJ91",
          "name":"Bermuda",
          "longitude":-64.75737,
          "lastUpdated":"2020-09-02T06:16:03.401Z",
          "dead":9,
          "sick":6,
          "invisible":false
       },
       {
          "id":"DaMrRSIGJXIG36nW0Pnc",
          "recovered":218,
          "dead":4,
          "latitude":21.694,
          "pop":35446,
          "longitude":-71.7979,
          "country":"TC",
          "name":"Turks and Caicos",
          "lastUpdated":"2020-09-02T06:16:03.396Z",
          "infected":538,
          "sick":316,
          "invisible":false
       },
       {
          "longitude":-3.0977,
          "latitude":39.2796,
          "country":"ES",
          "pop":2035000,
          "dead":3043,
          "id":"Dbng0NBTH41EEwBxhMzE",
          "infected":24157,
          "name":"Castilla La Mancha",
          "recovered":0,
          "state":"CM",
          "lastUpdated":"2020-09-01T23:52:04.133Z",
          "sick":21114,
          "invisible":false
       },
       {
          "recovered":0,
          "country":"PL",
          "infected":7624,
          "longitude":20.006,
          "name":"Malopolskie",
          "pop":3361000,
          "id":"DcQ3D0WkacXEbv6iznRB",
          "latitude":50.023,
          "dead":131,
          "lastUpdated":"2020-09-02T06:03:02.229Z",
          "sick":7493,
          "invisible":false
       },
       {
          "id":"DdBt8qsG6A3g92oOR3ow",
          "dead":0,
          "infected":46,
          "name":"Macao",
          "latitude":22.192039,
          "country":"MO",
          "recovered":46,
          "lastUpdated":"2020-09-02T06:16:03.406Z",
          "longitude":113.551262,
          "pop":622567,
          "sick":0,
          "invisible":false
       },
       {
          "id":"Dh0O1vmhrVfmsCsfZCUg",
          "infected":2440,
          "name":"Meghalaya",
          "latitude":25.467,
          "country":"IN",
          "dead":12,
          "longitude":91.3662,
          "recovered":1235,
          "lastUpdated":"2020-09-02T06:12:02.309Z",
          "pop":2651000,
          "sick":1193,
          "invisible":false
       },
       {
          "recovered":14608,
          "longitude":41.8259,
          "pop":4220000,
          "infected":17060,
          "name":"Rostov Oblast",
          "id":"DqzAhNFTJFQVm88ma21P",
          "dead":354,
          "lastUpdated":"2020-09-02T06:00:09.737Z",
          "latitude":47.6853,
          "country":"RU",
          "sick":2098,
          "invisible":false
       },
       {
          "id":"DrGzziUglmBognCGY7R2",
          "country":"US",
          "longitude":-107.534868,
          "name":"Wyoming",
          "latitude":42.962334,
          "pop":577737,
          "dead":41,
          "state":"WY",
          "infected":3866,
          "recovered":0,
          "lastUpdated":"2020-09-02T06:17:02.432Z",
          "sick":3825,
          "invisible":false
       },
       {
          "id":"Dtr1lap1RpJpXJdXGJiW",
          "name":"Greece",
          "country":"GR",
          "recovered":3804,
          "lastUpdated":"2020-09-02T06:16:03.385Z",
          "latitude":37.9838,
          "pop":10740000,
          "longitude":23.7275,
          "infected":10524,
          "dead":271,
          "sick":6449,
          "invisible":false
       },
       {
          "longitude":56.5872,
          "id":"E8vIyXLVNtcY9dxLHICp",
          "country":"RU",
          "pop":2623000,
          "name":"Perm Krai",
          "latitude":58.8232,
          "lastUpdated":"2020-09-02T06:00:09.775Z",
          "infected":7923,
          "recovered":5537,
          "dead":215,
          "sick":2171,
          "invisible":false
       },
       {
          "pop":3692000,
          "recovered":7016,
          "longitude":66.9483,
          "dead":31,
          "infected":7820,
          "latitude":56.9634,
          "name":"Tyumen Oblast",
          "lastUpdated":"2020-09-02T06:00:09.775Z",
          "country":"RU",
          "id":"EHKZ6ivhrJUs3XqNDBOw",
          "sick":773,
          "invisible":false
       },
       {
          "longitude":121.563698,
          "latitude":25.03841,
          "pop":23780000,
          "dead":7,
          "name":"Taiwan",
          "infected":488,
          "country":"TW",
          "recovered":462,
          "id":"EKTfs8e7M6DXzI1HqyyX",
          "lastUpdated":"2020-09-02T06:16:03.397Z",
          "sick":19,
          "invisible":false
       },
       {
          "pop":4906000,
          "latitude":10.327273,
          "id":"EQzJvzVHKjs8kLmK7BMu",
          "name":"Costa Rica",
          "longitude":-84.387618,
          "infected":42184,
          "lastUpdated":"2020-09-02T06:16:03.381Z",
          "country":"CR",
          "recovered":16270,
          "dead":443,
          "sick":25471,
          "invisible":false
       },
       {
          "recovered":79013,
          "name":"Gujarat",
          "longitude":71.1924,
          "infected":97745,
          "id":"ERwk9R9en4m9WbdoMbIg",
          "lastUpdated":"2020-09-02T06:12:02.307Z",
          "dead":3034,
          "latitude":22.2587,
          "pop":62700000,
          "country":"IN",
          "sick":15698,
          "invisible":false
       },
       {
          "dead":252,
          "country":"RU",
          "recovered":9072,
          "name":"Arkhangelsk Oblast",
          "pop":1155000,
          "id":"EVMBsgCJedjHy91mDYEC",
          "longitude":42.5884,
          "lastUpdated":"2020-09-02T06:00:09.774Z",
          "infected":10888,
          "latitude":63.2853,
          "sick":1564,
          "invisible":false
       },
       {
          "dead":57,
          "recovered":2551,
          "longitude":76.7794,
          "id":"Esl5UlCVB9s8pmGB5Ofr",
          "latitude":30.7333,
          "infected":4550,
          "country":"IN",
          "pop":1055000,
          "name":"Chandigarh",
          "lastUpdated":"2020-09-02T06:12:02.309Z",
          "sick":1942,
          "invisible":false
       },
       {
          "dead":25,
          "recovered":0,
          "lastUpdated":"2020-09-02T06:03:02.234Z",
          "name":"Lubelskie",
          "latitude":51.24,
          "pop":2148000,
          "id":"Esy1La2CxwH5uB8bGVWZ",
          "country":"PL",
          "longitude":22.653,
          "infected":1600,
          "sick":1575,
          "invisible":false
       },
       {
          "pop":3195000,
          "longitude":-66.664513,
          "alwaysShow":true,
          "name":"Puerto Rico",
          "country":"US",
          "recovered":0,
          "state":"PR",
          "dead":435,
          "lastUpdated":"2020-09-02T06:17:02.433Z",
          "latitude":18.200178,
          "infected":33421,
          "id":"F4rPrEVGAIMM5rfPEMv4",
          "sick":32986,
          "invisible":false
       },
       {
          "id":"F7MED5VwEhi3JvJu6KjB",
          "longitude":-74.058655,
          "lastUpdated":"2020-09-02T06:12:43.466Z",
          "pop":2919000,
          "recovered":17023,
          "dead":663,
          "name":"Cundinamarca",
          "latitude":4.862437,
          "infected":23812,
          "country":"CO",
          "sick":6126,
          "invisible":false
       },
       {
          "infected":427,
          "name":"Comoros",
          "pop":832322,
          "lastUpdated":"2020-09-02T06:16:03.397Z",
          "dead":7,
          "id":"F8LnLqvuWoWh8awBqiw1",
          "longitude":43.3333,
          "latitude":-11.6455,
          "country":"KM",
          "recovered":410,
          "sick":10,
          "invisible":false
       },
       {
          "infected":38205,
          "country":"AF",
          "dead":1406,
          "longitude":67.709953,
          "pop":35530000,
          "lastUpdated":"2020-09-02T06:16:03.382Z",
          "latitude":33.93911,
          "name":"Afghanistan",
          "recovered":29254,
          "id":"FCDmlmnIIswd8bQiUjfN",
          "sick":7545,
          "invisible":false
       },
       {
          "name":"Chongqing",
          "country":"CN",
          "lastUpdated":"2020-09-02T05:53:04.381Z",
          "latitude":29.431585,
          "pop":30480000,
          "id":"FErOU1m4Tj7jIkRam3vF",
          "longitude":106.912254,
          "infected":583,
          "recovered":577,
          "dead":6,
          "sick":0,
          "invisible":false
       },
       {
          "recovered":77657,
          "latitude":29.311661,
          "pop":4137000,
          "longitude":47.481766,
          "infected":85811,
          "id":"FZsUkhxBEgqsPb4eO0PN",
          "name":"Kuwait",
          "lastUpdated":"2020-09-02T06:16:03.370Z",
          "country":"KW",
          "dead":534,
          "sick":7620,
          "invisible":false
       },
       {
          "latitude":-10.9111,
          "country":"BR",
          "lastUpdated":"2020-09-02T05:57:02.097Z",
          "longitude":-37.0717,
          "recovered":0,
          "dead":1867,
          "id":"FboWeolpM62SZCLwdilT",
          "infected":72721,
          "pop":2278308,
          "state":"SE",
          "name":"Sergipe",
          "sick":70854,
          "invisible":false
       },
       {
          "name":"Tamil Nadu",
          "id":"FeS45oMNC27pI17F0xEV",
          "dead":7418,
          "lastUpdated":"2020-09-02T06:12:02.307Z",
          "latitude":11.1271,
          "country":"IN",
          "recovered":374172,
          "longitude":78.6569,
          "pop":67860000,
          "infected":433969,
          "sick":52379,
          "invisible":false
       },
       {
          "recovered":68736,
          "country":"DO",
          "infected":94979,
          "dead":1738,
          "name":"Dominican Republic",
          "id":"FuiVEJvWb0QMCpxJ3563",
          "lastUpdated":"2020-09-02T06:16:03.369Z",
          "latitude":18.947829,
          "pop":10770000,
          "longitude":-70.430399,
          "sick":24505,
          "invisible":false
       },
       {
          "id":"FyC551oNwmENxbr9Yght",
          "dead":846,
          "recovered":97402,
          "infected":130589,
          "longitude":79.0193,
          "lastUpdated":"2020-09-02T06:12:02.307Z",
          "latitude":18.1124,
          "pop":35190000,
          "country":"IN",
          "name":"Telengana",
          "sick":32341,
          "invisible":false
       },
       {
          "longitude":19.699,
          "latitude":48.669,
          "pop":5450000,
          "dead":33,
          "id":"FzIDXoqWnTI3nUfhPyT2",
          "lastUpdated":"2020-09-02T06:16:03.388Z",
          "infected":3989,
          "name":"Slovakia",
          "country":"SK",
          "recovered":2478,
          "sick":1478,
          "invisible":false
       },
       {
          "latitude":30.37532,
          "id":"GAp7Wb6IMhdgbvEtMza9",
          "name":"Pakistan",
          "pop":197000000,
          "infected":296590,
          "country":"PK",
          "recovered":281459,
          "lastUpdated":"2020-09-02T06:16:03.368Z",
          "longitude":69.345116,
          "dead":6318,
          "sick":8813,
          "invisible":false
       },
       {
          "name":"Punjab",
          "pop":27980000,
          "latitude":31.1471,
          "longitude":75.3412,
          "id":"GGru8cG08mANO8XDDUtZ",
          "recovered":38147,
          "lastUpdated":"2020-09-02T06:12:02.308Z",
          "country":"IN",
          "infected":55508,
          "dead":1512,
          "sick":15849,
          "invisible":false
       },
       {
          "recovered":61491,
          "lastUpdated":"2020-09-02T06:16:03.380Z",
          "longitude":53.847816,
          "name":"United Arab Emirates",
          "country":"AE",
          "pop":9400000,
          "dead":384,
          "id":"GHzBIsHy2GiBc5JV2HMs",
          "latitude":23.424076,
          "infected":70805,
          "sick":8930,
          "invisible":false
       },
       {
          "recovered":0,
          "infected":103,
          "longitude":-95.7129,
          "invisible":true,
          "country":"US",
          "latitude":37.0902,
          "dead":3,
          "id":"GLViSIjDjwvptOphedAu",
          "name":"Grand Princess",
          "lastUpdated":"2020-09-02T06:17:02.433Z",
          "sick":100
       },
       {
          "country":"GB",
          "dead":0,
          "lastUpdated":"2020-09-02T06:13:06.579Z",
          "infected":39607,
          "latitude":51.5074,
          "longitude":-0.1278,
          "recovered":0,
          "name":"London",
          "pop":10100000,
          "id":"GPtoS0Yy2EnNafpmmTqY",
          "state":"EN",
          "sick":39607,
          "invisible":false
       },
       {
          "id":"Gh46r6vuaY7fbGt3IboN",
          "latitude":36.621981,
          "dead":13165,
          "country":"US",
          "name":"California",
          "infected":716649,
          "state":"CA",
          "recovered":0,
          "pop":39560000,
          "longitude":-119.339046,
          "lastUpdated":"2020-09-02T06:17:02.425Z",
          "sick":703484,
          "invisible":false
       },
       {
          "longitude":72.8397,
          "lastUpdated":"2020-09-02T06:12:02.309Z",
          "country":"IN",
          "name":"Dadra and Nagar Haveli",
          "dead":2,
          "pop":343709,
          "recovered":2122,
          "latitude":20.4283,
          "id":"GljWeVnun6o9DeW6rlEm",
          "infected":2386,
          "sick":262,
          "invisible":false
       },
       {
          "state":"OK",
          "name":"Oklahoma",
          "infected":59399,
          "pop":3943000,
          "country":"US",
          "latitude":35.87189,
          "longitude":-97.145514,
          "recovered":0,
          "dead":809,
          "lastUpdated":"2020-09-02T06:17:02.429Z",
          "id":"GpF8ULuKOQiFDCUHN44h",
          "sick":58590,
          "invisible":false
       },
       {
          "longitude":-71.557,
          "recovered":704,
          "name":"Arauca",
          "latitude":6.492,
          "id":"Gr09a1wn3BnMqjQbgEun",
          "dead":18,
          "lastUpdated":"2020-09-02T06:12:43.468Z",
          "infected":970,
          "country":"CO",
          "pop":256627,
          "sick":248,
          "invisible":false
       },
       {
          "latitude":57.1057,
          "pop":1014000,
          "name":"Ivanovo Oblast",
          "lastUpdated":"2020-09-02T06:00:09.776Z",
          "infected":7433,
          "dead":119,
          "recovered":6156,
          "longitude":41.483,
          "country":"RU",
          "id":"GsecjBfopdgTOnyRgtCA",
          "sick":1158,
          "invisible":false
       },
       {
          "longitude":11.35,
          "infected":2948,
          "name":"P.A. Bolzano",
          "id":"Gzx6GX1qhBm714BkEC6l",
          "dead":292,
          "lastUpdated":"2020-09-02T06:01:01.545Z",
          "country":"IT",
          "recovered":2455,
          "state":"BA",
          "latitude":46.5,
          "pop":520891,
          "sick":201,
          "invisible":false
       },
       {
          "name":"Inner Mongolia",
          "country":"CN",
          "id":"H3JeVigVbo5CSYfZG4WI",
          "recovered":258,
          "lastUpdated":"2020-09-02T05:53:04.380Z",
          "longitude":113.750972,
          "pop":24710000,
          "latitude":42.83263,
          "infected":261,
          "dead":1,
          "sick":2,
          "invisible":false
       },
       {
          "longitude":-116.724977,
          "infected":69633,
          "country":"US",
          "latitude":39.74536,
          "pop":3034000,
          "lastUpdated":"2020-09-02T06:17:02.429Z",
          "id":"H3bDg4eV30up4WWrIDAS",
          "state":"NV",
          "recovered":0,
          "dead":1313,
          "name":"Nevada",
          "sick":68320,
          "invisible":false
       },
       {
          "latitude":-3.731862,
          "pop":9075649,
          "state":"CE",
          "country":"BR",
          "dead":8447,
          "recovered":0,
          "lastUpdated":"2020-09-02T05:57:02.090Z",
          "longitude":-38.526669,
          "infected":216333,
          "name":"Ceará",
          "id":"HEMWNnFxeFEoeOCBOLJD",
          "sick":207886,
          "invisible":false
       },
       {
          "name":"Karnataka",
          "latitude":15.3173,
          "lastUpdated":"2020-09-02T06:12:02.307Z",
          "country":"IN",
          "longitude":75.7139,
          "dead":5837,
          "pop":64060000,
          "recovered":254626,
          "id":"HN5mGmxlqlSeFSNeu1K5",
          "infected":351481,
          "sick":91018,
          "invisible":false
       },
       {
          "longitude":90.4336,
          "lastUpdated":"2020-09-02T06:16:03.401Z",
          "pop":807610,
          "latitude":27.5142,
          "country":"BT",
          "id":"HRDpwyxpqW9RN0xLFyNu",
          "name":"Bhutan",
          "dead":0,
          "infected":227,
          "recovered":142,
          "sick":85,
          "invisible":false
       },
       {
          "pop":32390000,
          "country":"UZ",
          "name":"Uzbekistan",
          "latitude":41.3775,
          "lastUpdated":"2020-09-02T06:16:03.381Z",
          "infected":42370,
          "longitude":64.5853,
          "id":"HRTA10dtrruDEwjJEGMp",
          "recovered":39664,
          "dead":326,
          "sick":2380,
          "invisible":false
       },
       {
          "name":"New Mexico",
          "lastUpdated":"2020-09-02T06:17:02.430Z",
          "pop":2095000,
          "id":"HSSFomRju0doHhWgW8On",
          "infected":25460,
          "dead":787,
          "latitude":34.138916,
          "longitude":-105.576255,
          "country":"US",
          "recovered":0,
          "state":"NM",
          "sick":24673,
          "invisible":false
       },
       {
          "lastUpdated":"2020-09-02T06:06:02.145Z",
          "latitude":-40.231,
          "longitude":-72.3311,
          "id":"HZkACHjW7NlYjg8vEMj2",
          "recovered":0,
          "country":"CL",
          "dead":15,
          "infected":1124,
          "name":"Los Ríos",
          "pop":412812,
          "sick":1109,
          "invisible":false
       },
       {
          "latitude":53.6127,
          "pop":1635000,
          "infected":1014,
          "state":"MV",
          "recovered":955,
          "country":"DE",
          "lastUpdated":"2020-09-02T06:00:04.244Z",
          "id":"He1gSS1v50t06i3YrqvB",
          "dead":21,
          "longitude":12.4296,
          "name":"Mecklenburg-Vorpommern",
          "sick":38,
          "invisible":false
       },
       {
          "country":"IT",
          "id":"I9EqrZfbPnkioNU4wZGz",
          "lastUpdated":"2020-09-02T06:01:01.543Z",
          "dead":472,
          "infected":3780,
          "longitude":13.75,
          "latitude":42.25,
          "recovered":2902,
          "name":"Abruzzo",
          "state":"65",
          "pop":1315000,
          "sick":406,
          "invisible":false
       },
       {
          "pop":113460000,
          "id":"IAX0OQLVnUwU7FX0ENF1",
          "country":"CN",
          "latitude":23.363855,
          "longitude":113.373448,
          "recovered":1721,
          "name":"Guangdong",
          "lastUpdated":"2020-09-02T05:53:04.379Z",
          "infected":1742,
          "dead":8,
          "sick":13,
          "invisible":false
       },
       {
          "country":"CN",
          "infected":1276,
          "dead":22,
          "pop":94000000,
          "longitude":113.484016,
          "name":"Henan",
          "recovered":1254,
          "id":"IFuMrMvSjoiX5agYvllh",
          "latitude":33.875408,
          "lastUpdated":"2020-09-02T05:53:04.380Z",
          "sick":0,
          "invisible":false
       },
       {
          "recovered":0,
          "dead":17,
          "country":"PT",
          "name":"Algarve",
          "infected":1034,
          "longitude":-8.16667,
          "lastUpdated":"2020-09-02T05:53:02.106Z",
          "latitude":37.2,
          "pop":451000,
          "id":"IHqRHC8K3OZPN8gniM7V",
          "sick":1017,
          "invisible":false
       },
       {
          "latitude":3.883,
          "id":"IKWjRUo0SYgHQKdWjTvq",
          "recovered":2074,
          "pop":333194,
          "infected":2403,
          "longitude":-77.0197,
          "dead":158,
          "lastUpdated":"2020-09-02T06:12:43.467Z",
          "country":"CO",
          "name":"Buenaventura D.E.",
          "sick":171,
          "invisible":false
       },
       {
          "country":"GB",
          "longitude":-0.995,
          "lastUpdated":"2020-09-02T06:13:06.579Z",
          "id":"INyu1R48Ppv8cfW4Nuz4",
          "dead":0,
          "recovered":0,
          "state":"EN",
          "latitude":52.87,
          "infected":26378,
          "pop":4811000,
          "name":"East Midlands",
          "sick":26378,
          "invisible":false
       },
       {
          "country":"MX",
          "dead":458,
          "pop":1342600,
          "recovered":0,
          "latitude":22.017,
          "id":"ISRKMzEDojyrZ9iyWwex",
          "name":"Aguascalientes",
          "lastUpdated":"2020-09-02T06:02:01.924Z",
          "longitude":-102.317,
          "infected":7218,
          "sick":6760,
          "invisible":false
       },
       {
          "id":"IdKbgzgKLpjBFh4UPOwu",
          "dead":2506,
          "recovered":0,
          "name":"Nuevo León",
          "longitude":-100.316116,
          "country":"MX",
          "infected":50573,
          "pop":5321300,
          "lastUpdated":"2020-09-02T06:02:01.924Z",
          "latitude":25.686613,
          "sick":48067,
          "invisible":false
       },
       {
          "country":"MX",
          "id":"IhhiYI6T0TX4CYVPcnmH",
          "latitude":28.632996,
          "longitude":-106.069099,
          "recovered":0,
          "lastUpdated":"2020-09-02T06:02:01.923Z",
          "name":"Chihuahua",
          "dead":1330,
          "infected":11810,
          "pop":3826900,
          "sick":10480,
          "invisible":false
       },
       {
          "name":"Ñuble",
          "id":"ImnOiVx9Cb8Nw7cbRcQ7",
          "infected":4810,
          "lastUpdated":"2020-09-02T06:06:02.145Z",
          "country":"CL",
          "longitude":-72.57,
          "recovered":0,
          "pop":480600,
          "latitude":-36.7,
          "dead":80,
          "sick":4730,
          "invisible":false
       },
       {
          "country":"HT",
          "id":"InZ38sIqyK7FN7XAOZoX",
          "recovered":5828,
          "longitude":-73.0513,
          "pop":10980000,
          "name":"Haiti",
          "lastUpdated":"2020-09-02T06:16:03.386Z",
          "infected":8230,
          "latitude":19.0558,
          "dead":203,
          "sick":2199,
          "invisible":false
       },
       {
          "name":"Georgia (US)",
          "lastUpdated":"2020-09-02T06:17:02.426Z",
          "pop":10520000,
          "id":"IvQkDJkTAsoIqPRAU25n",
          "state":"GA",
          "dead":5733,
          "country":"US",
          "infected":272697,
          "latitude":32.528564,
          "longitude":-83.280125,
          "recovered":0,
          "sick":266964,
          "invisible":false
       },
       {
          "name":"New Zealand",
          "id":"IvVhpOoGpH6JVkGyUhXN",
          "dead":22,
          "recovered":1606,
          "longitude":172.488081,
          "country":"NZ",
          "infected":1757,
          "lastUpdated":"2020-09-02T06:16:03.394Z",
          "latitude":-42.8285,
          "pop":4794000,
          "sick":129,
          "invisible":false
       },
       {
          "latitude":28.218,
          "recovered":2979,
          "lastUpdated":"2020-09-02T06:12:02.309Z",
          "dead":7,
          "name":"Arunachal Pradesh",
          "infected":4212,
          "id":"IwYKiIVY18NGwdGQFGWW",
          "longitude":94.7278,
          "country":"IN",
          "pop":1255000,
          "sick":1226,
          "invisible":false
       },
       {
          "longitude":-66.5897,
          "country":"VE",
          "latitude":6.4238,
          "pop":28870000,
          "name":"Venezuela",
          "infected":47756,
          "dead":391,
          "id":"J3mZXlfEnnJx4CDZLvRG",
          "recovered":39027,
          "lastUpdated":"2020-09-02T06:16:03.381Z",
          "sick":8338,
          "invisible":false
       },
       {
          "name":"Guaviare",
          "latitude":2.567,
          "recovered":220,
          "country":"CO",
          "pop":107932,
          "id":"JEMCwkwXK39jd1lZ7VgJ",
          "lastUpdated":"2020-09-02T06:12:43.468Z",
          "infected":279,
          "longitude":-72.633,
          "dead":1,
          "sick":58,
          "invisible":false
       },
       {
          "recovered":2906,
          "infected":3405,
          "latitude":44.8229,
          "lastUpdated":"2020-09-02T06:00:09.779Z",
          "dead":27,
          "name":"Adygea",
          "longitude":40.1754,
          "country":"RU",
          "pop":453000,
          "id":"JOJVBvOnsLDJPVeYJaI2",
          "sick":472,
          "invisible":false
       },
       {
          "infected":1490,
          "longitude":33.4299,
          "id":"JQByE4l2OA6sGOqIcWrM",
          "recovered":1139,
          "lastUpdated":"2020-09-02T06:16:03.394Z",
          "pop":1170000,
          "name":"Cyprus",
          "latitude":35.1264,
          "country":"CY",
          "dead":21,
          "sick":330,
          "invisible":false
       },
       {
          "country":"IN",
          "id":"JR7hOGked7CZtIs2nCV5",
          "infected":138265,
          "dead":709,
          "longitude":85.3131,
          "pop":99020000,
          "lastUpdated":"2020-09-02T06:12:02.307Z",
          "name":"Bihar",
          "latitude":25.0961,
          "recovered":121601,
          "sick":15955,
          "invisible":false
       },
       {
          "pop":17250000,
          "lastUpdated":"2020-09-02T06:16:03.379Z",
          "country":"GT",
          "latitude":14.628434,
          "recovered":62935,
          "infected":74893,
          "name":"Guatemala",
          "id":"JUWE6bG3b5oL7fKQMSvv",
          "longitude":-90.522713,
          "dead":2778,
          "sick":9180,
          "invisible":false
       },
       {
          "latitude":49.8153,
          "lastUpdated":"2020-09-01T23:49:14.969Z",
          "pop":602005,
          "name":"Luxembourg",
          "recovered":0,
          "infected":7928,
          "dead":124,
          "longitude":6.1296,
          "id":"JcFsHSn2WvZ5LJW42ovG",
          "country":"LU",
          "sick":7804,
          "invisible":false
       },
       {
          "name":"Bolívar",
          "recovered":3861,
          "id":"JmOyaFe25yZCIV64JbZj",
          "pop":2049000,
          "country":"CO",
          "dead":190,
          "longitude":-74.167,
          "latitude":8.8,
          "infected":4871,
          "lastUpdated":"2020-09-02T06:12:43.467Z",
          "sick":820,
          "invisible":false
       },
       {
          "lastUpdated":"2020-09-02T06:02:01.922Z",
          "pop":3648100,
          "id":"Jp9ePErcc8i1aOozEAMf",
          "longitude":-115.783,
          "name":"Baja California",
          "dead":3207,
          "recovered":0,
          "infected":16987,
          "country":"MX",
          "latitude":31.4,
          "sick":13780,
          "invisible":false
       },
       {
          "lastUpdated":"2020-09-02T06:12:43.467Z",
          "dead":1345,
          "longitude":-75.8814316,
          "recovered":15076,
          "latitude":8.7479801,
          "pop":1786500,
          "id":"Jr8syCB0lydmPDXw8Q6N",
          "infected":19953,
          "name":"Córdoba",
          "country":"CO",
          "sick":3532,
          "invisible":false
       },
       {
          "lastUpdated":"2020-09-02T06:16:03.394Z",
          "dead":28,
          "infected":1416,
          "name":"Togo",
          "latitude":8.6195,
          "recovered":1035,
          "longitude":0.8248,
          "id":"JrBbirlBKGdWSdcDt7PF",
          "country":"TG",
          "pop":7798000,
          "sick":353,
          "invisible":false
       },
       {
          "country":"BG",
          "pop":7050000,
          "infected":16454,
          "name":"Bulgaria",
          "id":"JzZ8sbqzjutThVjkPKPL",
          "longitude":25.4858,
          "recovered":11615,
          "lastUpdated":"2020-09-02T06:16:03.385Z",
          "dead":642,
          "latitude":42.7339,
          "sick":4197,
          "invisible":false
       },
       {
          "lastUpdated":"2020-09-02T06:03:02.235Z",
          "latitude":50.823,
          "recovered":0,
          "infected":1443,
          "longitude":20.709,
          "dead":50,
          "name":"Świętokrzyskie",
          "country":"PL",
          "id":"KGrK7gafkeWjmU6sHQd2",
          "pop":1263000,
          "sick":1393,
          "invisible":false
       },
       {
          "infected":25432,
          "pop":4325000,
          "lastUpdated":"2020-09-02T06:00:09.737Z",
          "dead":454,
          "id":"KLBR5QHW6DePaGcFxlqH",
          "name":"Sverdlovsk Oblast",
          "longitude":61.9316,
          "country":"RU",
          "latitude":59.0077,
          "recovered":20022,
          "sick":4956,
          "invisible":false
       },
       {
          "pop":1557000,
          "longitude":8.833,
          "id":"KLXicxFogWnu0dLp4bNK",
          "infected":10970,
          "country":"IT",
          "recovered":8839,
          "latitude":44.5,
          "name":"Liguria",
          "dead":1571,
          "state":"42",
          "lastUpdated":"2020-09-02T06:01:01.544Z",
          "sick":560,
          "invisible":false
       },
       {
          "name":"Mari El Republic",
          "pop":682000,
          "country":"RU",
          "dead":39,
          "latitude":56.4385,
          "lastUpdated":"2020-09-02T06:00:09.779Z",
          "id":"KUnAVGJH6fLwFetE8A2x",
          "longitude":47.9608,
          "recovered":3827,
          "infected":4276,
          "sick":410,
          "invisible":false
       },
       {
          "longitude":-73.2532,
          "dead":313,
          "id":"KpOz3WmiZkrXUMlUJNlV",
          "recovered":6428,
          "name":"Cesar",
          "lastUpdated":"2020-09-02T06:12:43.466Z",
          "infected":11211,
          "country":"CO",
          "latitude":10.4631,
          "pop":1201000,
          "sick":4470,
          "invisible":false
       },
       {
          "recovered":9175,
          "infected":11898,
          "id":"KrLrJbpDqqiXgUPGCCW9",
          "longitude":11,
          "name":"Toscana",
          "state":"52",
          "latitude":43.4167,
          "lastUpdated":"2020-09-02T06:01:01.545Z",
          "pop":3737000,
          "country":"IT",
          "dead":1142,
          "sick":1581,
          "invisible":false
       },
       {
          "name":"Sri Lanka",
          "recovered":2879,
          "infected":3092,
          "longitude":80.771797,
          "id":"KsWzJO06cf0d6LJ4ZNh9",
          "pop":21440000,
          "lastUpdated":"2020-09-02T06:16:03.388Z",
          "latitude":7.873054,
          "country":"LK",
          "dead":12,
          "sick":201,
          "invisible":false
       },
       {
          "pop":49670000,
          "longitude":79.74,
          "infected":445139,
          "dead":4053,
          "name":"Andhra Pradesh",
          "latitude":15.9129,
          "country":"IN",
          "recovered":339876,
          "lastUpdated":"2020-09-02T06:12:02.307Z",
          "id":"KtQIo2DoqjELtPAlyDVO",
          "sick":101210,
          "invisible":false
       },
       {
          "id":"LBUtrLDKJiupXjlUNTUe",
          "lastUpdated":"2020-09-02T06:16:03.401Z",
          "latitude":18.0708,
          "name":"Saint-Martin",
          "infected":213,
          "country":"FR",
          "longitude":-63.0501,
          "dead":5,
          "alwaysShow":true,
          "recovered":79,
          "pop":32125,
          "sick":129,
          "invisible":false
       },
       {
          "longitude":36.9242,
          "dead":108,
          "pop":747000,
          "name":"Oryol Oblast",
          "recovered":5622,
          "lastUpdated":"2020-09-02T06:00:09.777Z",
          "country":"RU",
          "infected":7080,
          "id":"LD8TNScpLrLRvgpQAn9T",
          "latitude":52.7856,
          "sick":1350,
          "invisible":false
       },
       {
          "id":"LTGEU2E9MFkrCcFhZYVk",
          "recovered":97,
          "lastUpdated":"2020-09-02T06:16:03.406Z",
          "infected":107,
          "longitude":9.5554,
          "dead":1,
          "name":"Liechtenstein",
          "latitude":47.166,
          "country":"LI",
          "pop":38557,
          "sick":9,
          "invisible":false
       },
       {
          "name":"Guinea",
          "longitude":-9.6966,
          "infected":9479,
          "lastUpdated":"2020-09-02T06:16:03.386Z",
          "latitude":9.9456,
          "country":"GN",
          "id":"LU2QWt5ao8IJa8evNYVV",
          "recovered":8527,
          "dead":59,
          "pop":12720000,
          "sick":893,
          "invisible":false
       },
       {
          "recovered":0,
          "latitude":29.6667,
          "lastUpdated":"2020-09-02T06:02:01.923Z",
          "infected":28785,
          "pop":3062000,
          "dead":2690,
          "longitude":-110.5,
          "id":"LYCBHrA9ms6GcxpLGPCT",
          "name":"Sonora",
          "country":"MX",
          "sick":26095,
          "invisible":false
       },
       {
          "country":"SR",
          "longitude":-56.0277824,
          "infected":4089,
          "id":"LglKINHyQpYpFxjckbQ6",
          "recovered":3171,
          "lastUpdated":"2020-09-02T06:16:03.387Z",
          "dead":72,
          "name":"Suriname",
          "pop":563402,
          "latitude":3.9193051,
          "sick":846,
          "invisible":false
       },
       {
          "id":"LkIDKY0CMAqzbwBHyYCP",
          "lastUpdated":"2020-09-02T06:15:01.887Z",
          "name":"Saskatchewan",
          "pop":1174000,
          "dead":24,
          "latitude":52.9399,
          "state":"SK",
          "infected":1622,
          "longitude":-106.4509,
          "recovered":1567,
          "country":"CA",
          "sick":31,
          "invisible":false
       },
       {
          "pop":636442,
          "infected":10,
          "country":"EH",
          "dead":1,
          "longitude":-12.8858,
          "id":"LooNn6RuMiDhQnwa9svw",
          "name":"Western Sahara",
          "recovered":8,
          "lastUpdated":"2020-09-02T06:16:03.408Z",
          "latitude":24.2155,
          "sick":1,
          "invisible":false
       },
       {
          "pop":1022000,
          "infected":3354,
          "latitude":43.363129,
          "country":"ES",
          "recovered":0,
          "dead":335,
          "state":"AS",
          "longitude":-5.951843,
          "id":"Lsga7AvYNnY0qQ5gEfV8",
          "lastUpdated":"2020-09-01T23:54:45.821Z",
          "name":"Principado de Asturias",
          "sick":3019,
          "invisible":false
       },
       {
          "id":"LuEErlF7dVKI0eJsRjFm",
          "longitude":-6.0679,
          "dead":527,
          "state":"EX",
          "country":"ES",
          "name":"Extremadura",
          "latitude":39.4937,
          "recovered":0,
          "lastUpdated":"2020-09-01T23:53:24.074Z",
          "infected":5158,
          "pop":1065000,
          "sick":4631,
          "invisible":false
       },
       {
          "latitude":21.0186,
          "infected":33813,
          "country":"MX",
          "name":"Guanajuato",
          "id":"M3wdiueFtwrUHiQ2rOXA",
          "longitude":-101.2591,
          "dead":2169,
          "pop":5965000,
          "recovered":0,
          "lastUpdated":"2020-09-02T06:02:01.923Z",
          "sick":31644,
          "invisible":false
       },
       {
          "id":"MC8MXFw9iXYybnF8v7e6",
          "state":"KY",
          "name":"Kentucky",
          "latitude":37.8393,
          "lastUpdated":"2020-09-02T06:17:02.430Z",
          "longitude":-84.27,
          "infected":49185,
          "recovered":0,
          "country":"US",
          "pop":4468000,
          "dead":948,
          "sick":48237,
          "invisible":false
       },
       {
          "id":"MEjlm8VYdGA28TTTnQmf",
          "dead":36854,
          "infected":8844,
          "recovered":0,
          "lastUpdated":"2020-09-02T06:13:06.580Z",
          "latitude":55.3781,
          "country":"GB",
          "longitude":-3.436,
          "invisible":true,
          "name":"Unknown UK region or state",
          "sick":0
       },
       {
          "country":"PT",
          "pop":3689000,
          "dead":845,
          "infected":19972,
          "latitude":41.3006,
          "longitude":-7.7441,
          "name":"Norte",
          "id":"MG4e9tulLJ010SZJvbYN",
          "recovered":0,
          "lastUpdated":"2020-09-02T05:53:02.105Z",
          "sick":19127,
          "invisible":false
       },
       {
          "infected":20632,
          "country":"GB",
          "longitude":-4.2026,
          "name":"Scotland",
          "recovered":0,
          "lastUpdated":"2020-09-02T06:13:06.579Z",
          "latitude":56.4907,
          "id":"MObRYyIriHG337L8FyFC",
          "dead":2494,
          "state":"SC",
          "pop":5450000,
          "sick":18138,
          "invisible":false
       },
       {
          "id":"MOxDkmQ4wBi1CuAdVxDE",
          "name":"Indiana",
          "country":"US",
          "dead":3312,
          "longitude":-86.1349,
          "pop":6692000,
          "latitude":40.2672,
          "recovered":0,
          "lastUpdated":"2020-09-02T06:17:02.428Z",
          "infected":94891,
          "state":"IN",
          "sick":91579,
          "invisible":false
       },
       {
          "recovered":16814,
          "pop":24290000,
          "lastUpdated":"2020-09-02T06:16:03.384Z",
          "country":"CI",
          "latitude":7.54,
          "infected":18103,
          "longitude":-5.5471,
          "id":"MdQOfc1gNh2DOqwSP6UV",
          "name":"Ivory Coast",
          "dead":117,
          "sick":1172,
          "invisible":false
       },
       {
          "lastUpdated":"2020-09-02T06:00:04.245Z",
          "country":"DE",
          "longitude":7.6616,
          "name":"Nordrhein-Westfalen",
          "recovered":53331,
          "infected":59220,
          "latitude":51.4332,
          "dead":1822,
          "pop":17910000,
          "state":"NW",
          "id":"MjpYq3zQyAvSQlVVYjD2",
          "sick":4067,
          "invisible":false
       },
       {
          "longitude":105.977203,
          "name":"Ningxia",
          "latitude":37.330509,
          "id":"MntmjjuHljarCdt6aIeE",
          "lastUpdated":"2020-09-02T05:53:04.381Z",
          "country":"CN",
          "dead":0,
          "infected":75,
          "recovered":75,
          "pop":6301000,
          "sick":0,
          "invisible":false
       },
       {
          "state":"PA",
          "name":"Pará",
          "lastUpdated":"2020-09-02T05:57:02.090Z",
          "pop":8513497,
          "country":"BR",
          "latitude":-3.20166586,
          "dead":6176,
          "id":"MuEB2UgkId5crsxi9zQT",
          "infected":200985,
          "recovered":0,
          "longitude":-52.203499186,
          "sick":194809,
          "invisible":false
       },
       {
          "infected":5125,
          "pop":1150000,
          "recovered":4635,
          "lastUpdated":"2020-09-02T06:00:09.778Z",
          "country":"RU",
          "dead":27,
          "longitude":39.2032,
          "id":"N0KGfqgROVOjAxWcd8wi",
          "name":"Lipetsk Oblast",
          "latitude":52.5265,
          "sick":463,
          "invisible":false
       },
       {
          "state":"BW",
          "recovered":37437,
          "lastUpdated":"2020-09-02T06:00:04.240Z",
          "country":"DE",
          "infected":42810,
          "id":"N3XsRBwJSsNclkEf7Zz5",
          "name":"Baden-Württemberg",
          "dead":1920,
          "pop":11020000,
          "latitude":48.6616,
          "longitude":9.3501,
          "sick":3453,
          "invisible":false
       },
       {
          "infected":20234,
          "longitude":17.824332,
          "recovered":13435,
          "id":"N7c13sCQF0G789XAVazJ",
          "name":"Bosnia and Herzegovina",
          "country":"BA",
          "lastUpdated":"2020-09-02T06:16:03.384Z",
          "dead":620,
          "pop":3507000,
          "latitude":44.696652,
          "sick":6179,
          "invisible":false
       },
       {
          "id":"NBRIGIRrJB1Ry8prDNAC",
          "longitude":111.856857,
          "dead":0,
          "pop":36500000,
          "name":"Shanxi",
          "infected":203,
          "lastUpdated":"2020-09-02T05:53:04.380Z",
          "recovered":201,
          "country":"CN",
          "latitude":37.242565,
          "sick":2,
          "invisible":false
       },
       {
          "id":"NC64Qp5kTqAfiTuR27k8",
          "name":"North Carolina",
          "latitude":35.7596,
          "recovered":0,
          "lastUpdated":"2020-09-02T06:17:02.427Z",
          "infected":170239,
          "pop":10380000,
          "longitude":-79.0193,
          "state":"NC",
          "dead":2778,
          "country":"US",
          "sick":167461,
          "invisible":false
       },
       {
          "lastUpdated":"2020-09-02T06:00:04.243Z",
          "country":"DE",
          "longitude":12.5316,
          "id":"NJjo2gfBvnbK4xatrsUz",
          "infected":3916,
          "latitude":52.4125,
          "recovered":3603,
          "dead":178,
          "name":"Brandenburg",
          "pop":2504000,
          "state":"BB",
          "sick":135,
          "invisible":false
       },
       {
          "dead":2,
          "alwaysShow":true,
          "name":"Northern Mariana Islands",
          "longitude":145.6739,
          "recovered":0,
          "infected":57,
          "id":"NLLL6pJhJSw0lrDMD4uP",
          "state":"MP",
          "pop":55144,
          "latitude":15.0979,
          "country":"US",
          "lastUpdated":"2020-09-02T06:17:02.433Z",
          "sick":55,
          "invisible":false
       },
       {
          "recovered":14012,
          "dead":280,
          "name":"Uttarakhand",
          "lastUpdated":"2020-09-02T06:12:02.308Z",
          "country":"IN",
          "infected":20398,
          "latitude":30.0668,
          "pop":10080000,
          "longitude":79.0193,
          "id":"NMeZEcGToxXfpi16PfFV",
          "sick":6106,
          "invisible":false
       },
       {
          "recovered":13682,
          "country":"DE",
          "longitude":9.1624,
          "lastUpdated":"2020-09-02T06:00:04.244Z",
          "id":"Nk5vPgUIXsWVfbWZf15O",
          "infected":15696,
          "latitude":50.6521,
          "name":"Hessen",
          "dead":538,
          "pop":6243000,
          "state":"HE",
          "sick":1476,
          "invisible":false
       },
       {
          "dead":34,
          "pop":1920000,
          "id":"NmmMKy0YqA8StHdGzB5N",
          "latitude":56.96776,
          "infected":1404,
          "longitude":25.837107,
          "name":"Latvia",
          "lastUpdated":"2020-09-02T06:16:03.394Z",
          "country":"LV",
          "recovered":1173,
          "sick":197,
          "invisible":false
       },
       {
          "state":"PE",
          "recovered":0,
          "name":"Pernambuco",
          "country":"BR",
          "longitude":-37.946777,
          "lastUpdated":"2020-09-02T05:57:02.094Z",
          "infected":127287,
          "latitude":-8.472372,
          "id":"NyGlFL1gATK1Omv9qtcC",
          "dead":7614,
          "pop":9496294,
          "sick":119673,
          "invisible":false
       },
       {
          "longitude":-9.4295,
          "country":"LR",
          "name":"Liberia",
          "latitude":6.4281,
          "recovered":1158,
          "id":"O4g88K49HKEZLFXm5gxb",
          "lastUpdated":"2020-09-02T06:16:03.394Z",
          "dead":82,
          "pop":4732000,
          "infected":1305,
          "sick":65,
          "invisible":false
       },
       {
          "country":"RU",
          "recovered":10509,
          "name":"Altai Krai",
          "lastUpdated":"2020-09-02T06:00:09.740Z",
          "id":"O5fNOGWKosps6JTrzkpn",
          "latitude":51.7936,
          "longitude":82.6759,
          "infected":11781,
          "pop":2350000,
          "dead":119,
          "sick":1153,
          "invisible":false
       },
       {
          "infected":4632,
          "latitude":53.0929,
          "recovered":4265,
          "longitude":116.9677,
          "dead":57,
          "lastUpdated":"2020-09-02T06:00:09.779Z",
          "id":"O6PDzAxKENYbLsLjPx2K",
          "name":"Zabaykalsky Krai",
          "country":"RU",
          "pop":1072000,
          "sick":310,
          "invisible":false
       },
       {
          "dead":2757,
          "pop":5084000,
          "longitude":-80.525613,
          "id":"ONU4CK8QjViFHKg2w5if",
          "infected":119846,
          "country":"US",
          "recovered":0,
          "state":"SC",
          "lastUpdated":"2020-09-02T06:17:02.428Z",
          "latitude":34.003307,
          "name":"South Carolina",
          "sick":117089,
          "invisible":false
       },
       {
          "pop":2987000,
          "longitude":-89.582775,
          "latitude":33.51822,
          "name":"Mississippi",
          "infected":83584,
          "country":"US",
          "id":"OYa0jFzdbAgo8zUsRv6q",
          "dead":2493,
          "recovered":0,
          "state":"MS",
          "lastUpdated":"2020-09-02T06:17:02.429Z",
          "sick":81091,
          "invisible":false
       },
       {
          "lastUpdated":"2020-09-02T06:17:02.432Z",
          "infected":4548,
          "pop":1338000,
          "country":"US",
          "recovered":0,
          "latitude":45.2538,
          "state":"ME",
          "longitude":-69.4455,
          "id":"OcXNp9kNVSwrRlG3bNVN",
          "dead":132,
          "name":"Maine",
          "sick":4416,
          "invisible":false
       },
       {
          "infected":4424,
          "dead":76,
          "longitude":44.8203,
          "recovered":3933,
          "country":"RU",
          "latitude":43.4052,
          "lastUpdated":"2020-09-02T06:00:09.779Z",
          "id":"OlKS5SPydHY2TedStFuf",
          "pop":488000,
          "name":"Ingushetia",
          "sick":415,
          "invisible":false
       },
       {
          "infected":230,
          "dead":13,
          "pop":515000,
          "recovered":217,
          "country":"AU",
          "state":"TAS",
          "name":"Tasmania",
          "latitude":-41.915264,
          "longitude":146.725256,
          "id":"OnOseaqWdnuP18oruABW",
          "lastUpdated":"2020-09-02T05:58:23.381Z",
          "sick":0,
          "invisible":false
       },
       {
          "id":"P0GHFGUt1pkKTk5PM8uz",
          "recovered":0,
          "longitude":-56.666668,
          "lastUpdated":"2020-09-02T05:57:02.097Z",
          "latitude":-16.35,
          "pop":3441998,
          "infected":92856,
          "state":"MT",
          "country":"BR",
          "dead":2786,
          "name":"Mato Grosso",
          "sick":90070,
          "invisible":false
       },
       {
          "latitude":56.1553,
          "recovered":5498,
          "dead":194,
          "pop":1378000,
          "id":"P2I90oqdFSoVk03AaGo4",
          "longitude":40.5927,
          "infected":6345,
          "lastUpdated":"2020-09-02T06:00:09.778Z",
          "name":"Vladimir Oblast",
          "country":"RU",
          "sick":653,
          "invisible":false
       },